[
  {
    "city": "Sarajevo", 
    "lat": "43.8667", 
    "lng": "18.4167", 
    "country": "Bosnia And Herzegovina", 
    "iso2": "BA", 
    "admin_name": "Bosnia and Herzegovina, Federation of", 
    "capital": "primary", 
    "population": "275524", 
    "population_proper": "275524"
  }, 
  {
    "city": "Banja Luka", 
    "lat": "44.7667", 
    "lng": "17.1833", 
    "country": "Bosnia And Herzegovina", 
    "iso2": "BA", 
    "admin_name": "Srpska, Republika", 
    "capital": "admin", 
    "population": "199191", 
    "population_proper": "199191"
  }, 
  {
    "city": "Mostar", 
    "lat": "43.3494", 
    "lng": "17.8125", 
    "country": "Bosnia And Herzegovina", 
    "iso2": "BA", 
    "admin_name": "Bosnia and Herzegovina, Federation of", 
    "capital": "minor", 
    "population": "163067", 
    "population_proper": "104518"
  }, 
  {
    "city": "Bijeljina", 
    "lat": "44.7500", 
    "lng": "19.2167", 
    "country": "Bosnia And Herzegovina", 
    "iso2": "BA", 
    "admin_name": "Srpska, Republika", 
    "capital": "minor", 
    "population": "114663", 
    "population_proper": "114663"
  }, 
  {
    "city": "Tuzla", 
    "lat": "44.5381", 
    "lng": "18.6761", 
    "country": "Bosnia And Herzegovina", 
    "iso2": "BA", 
    "admin_name": "Bosnia and Herzegovina, Federation of", 
    "capital": "minor", 
    "population": "110979", 
    "population_proper": "110979"
  }, 
  {
    "city": "Prijedor", 
    "lat": "44.9667", 
    "lng": "16.7000", 
    "country": "Bosnia And Herzegovina", 
    "iso2": "BA", 
    "admin_name": "Srpska, Republika", 
    "capital": "minor", 
    "population": "89397", 
    "population_proper": "89397"
  }, 
  {
    "city": "Zenica", 
    "lat": "44.2039", 
    "lng": "17.9078", 
    "country": "Bosnia And Herzegovina", 
    "iso2": "BA", 
    "admin_name": "Bosnia and Herzegovina, Federation of", 
    "capital": "minor", 
    "population": "70553", 
    "population_proper": "70553"
  }, 
  {
    "city": "Doboj", 
    "lat": "44.7333", 
    "lng": "18.1333", 
    "country": "Bosnia And Herzegovina", 
    "iso2": "BA", 
    "admin_name": "Srpska, Republika", 
    "capital": "minor", 
    "population": "68514", 
    "population_proper": "68514"
  }, 
  {
    "city": "Zvornik", 
    "lat": "44.3833", 
    "lng": "19.1000", 
    "country": "Bosnia And Herzegovina", 
    "iso2": "BA", 
    "admin_name": "Srpska, Republika", 
    "capital": "minor", 
    "population": "63686", 
    "population_proper": "63686"
  }, 
  {
    "city": "Sanski Most", 
    "lat": "44.7667", 
    "lng": "16.6667", 
    "country": "Bosnia And Herzegovina", 
    "iso2": "BA", 
    "admin_name": "Bosnia and Herzegovina, Federation of", 
    "capital": "minor", 
    "population": "47359", 
    "population_proper": "47359"
  }, 
  {
    "city": "Lukavac", 
    "lat": "44.5333", 
    "lng": "18.5333", 
    "country": "Bosnia And Herzegovina", 
    "iso2": "BA", 
    "admin_name": "Bosnia and Herzegovina, Federation of", 
    "capital": "minor", 
    "population": "46731", 
    "population_proper": "46731"
  }, 
  {
    "city": "Bihać", 
    "lat": "44.8167", 
    "lng": "15.8667", 
    "country": "Bosnia And Herzegovina", 
    "iso2": "BA", 
    "admin_name": "Bosnia and Herzegovina, Federation of", 
    "capital": "minor", 
    "population": "43007", 
    "population_proper": "43007"
  }, 
  {
    "city": "Bugojno", 
    "lat": "44.0572", 
    "lng": "17.4508", 
    "country": "Bosnia And Herzegovina", 
    "iso2": "BA", 
    "admin_name": "Bosnia and Herzegovina, Federation of", 
    "capital": "minor", 
    "population": "34559", 
    "population_proper": "34559"
  }, 
  {
    "city": "Žepče", 
    "lat": "44.4333", 
    "lng": "18.0333", 
    "country": "Bosnia And Herzegovina", 
    "iso2": "BA", 
    "admin_name": "Bosnia and Herzegovina, Federation of", 
    "capital": "minor", 
    "population": "31582", 
    "population_proper": "31582"
  }, 
  {
    "city": "Trebinje", 
    "lat": "42.7089", 
    "lng": "18.3217", 
    "country": "Bosnia And Herzegovina", 
    "iso2": "BA", 
    "admin_name": "Srpska, Republika", 
    "capital": "minor", 
    "population": "31433", 
    "population_proper": "31433"
  }, 
  {
    "city": "Bosanska Krupa", 
    "lat": "44.8833", 
    "lng": "16.1500", 
    "country": "Bosnia And Herzegovina", 
    "iso2": "BA", 
    "admin_name": "Bosnia and Herzegovina, Federation of", 
    "capital": "minor", 
    "population": "29659", 
    "population_proper": "29659"
  }, 
  {
    "city": "Čapljina", 
    "lat": "43.1100", 
    "lng": "17.7000", 
    "country": "Bosnia And Herzegovina", 
    "iso2": "BA", 
    "admin_name": "Bosnia and Herzegovina, Federation of", 
    "capital": "minor", 
    "population": "28122", 
    "population_proper": "28122"
  }, 
  {
    "city": "Breza", 
    "lat": "44.0210", 
    "lng": "18.2610", 
    "country": "Bosnia And Herzegovina", 
    "iso2": "BA", 
    "admin_name": "Bosnia and Herzegovina, Federation of", 
    "capital": "minor", 
    "population": "14564", 
    "population_proper": "14564"
  }, 
  {
    "city": "Derventa", 
    "lat": "44.9800", 
    "lng": "17.9100", 
    "country": "Bosnia And Herzegovina", 
    "iso2": "BA", 
    "admin_name": "Srpska, Republika", 
    "capital": "minor", 
    "population": "12680", 
    "population_proper": "12680"
  }, 
  {
    "city": "Goražde", 
    "lat": "43.6667", 
    "lng": "18.9778", 
    "country": "Bosnia And Herzegovina", 
    "iso2": "BA", 
    "admin_name": "Bosnia and Herzegovina, Federation of", 
    "capital": "minor", 
    "population": "12512", 
    "population_proper": "12512"
  }, 
  {
    "city": "Foča", 
    "lat": "43.5000", 
    "lng": "18.7833", 
    "country": "Bosnia And Herzegovina", 
    "iso2": "BA", 
    "admin_name": "Srpska, Republika", 
    "capital": "minor", 
    "population": "12334", 
    "population_proper": "12334"
  }, 
  {
    "city": "Sapna", 
    "lat": "44.4917", 
    "lng": "19.0028", 
    "country": "Bosnia And Herzegovina", 
    "iso2": "BA", 
    "admin_name": "Bosnia and Herzegovina, Federation of", 
    "capital": "minor", 
    "population": "12136", 
    "population_proper": "12136"
  }, 
  {
    "city": "Jablanica", 
    "lat": "43.6583", 
    "lng": "17.7583", 
    "country": "Bosnia And Herzegovina", 
    "iso2": "BA", 
    "admin_name": "Bosnia and Herzegovina, Federation of", 
    "capital": "minor", 
    "population": "10580", 
    "population_proper": "10580"
  }, 
  {
    "city": "Vareš", 
    "lat": "44.1644", 
    "lng": "18.3283", 
    "country": "Bosnia And Herzegovina", 
    "iso2": "BA", 
    "admin_name": "Bosnia and Herzegovina, Federation of", 
    "capital": "minor", 
    "population": "9556", 
    "population_proper": "9556"
  }, 
  {
    "city": "Livno", 
    "lat": "43.8269", 
    "lng": "17.0081", 
    "country": "Bosnia And Herzegovina", 
    "iso2": "BA", 
    "admin_name": "Bosnia and Herzegovina, Federation of", 
    "capital": "minor", 
    "population": "9045", 
    "population_proper": "9045"
  }, 
  {
    "city": "Bosanski Petrovac", 
    "lat": "44.5500", 
    "lng": "16.3667", 
    "country": "Bosnia And Herzegovina", 
    "iso2": "BA", 
    "admin_name": "Bosnia and Herzegovina, Federation of", 
    "capital": "minor", 
    "population": "7946", 
    "population_proper": "7946"
  }, 
  {
    "city": "Mrkonjić Grad", 
    "lat": "44.4167", 
    "lng": "17.0833", 
    "country": "Bosnia And Herzegovina", 
    "iso2": "BA", 
    "admin_name": "Srpska, Republika", 
    "capital": "minor", 
    "population": "7915", 
    "population_proper": "7915"
  }, 
  {
    "city": "Drvar", 
    "lat": "44.3739", 
    "lng": "16.3808", 
    "country": "Bosnia And Herzegovina", 
    "iso2": "BA", 
    "admin_name": "Bosnia and Herzegovina, Federation of", 
    "capital": "minor", 
    "population": "7506", 
    "population_proper": "7506"
  }, 
  {
    "city": "Velika Kladuša", 
    "lat": "45.1667", 
    "lng": "15.8000", 
    "country": "Bosnia And Herzegovina", 
    "iso2": "BA", 
    "admin_name": "Bosnia and Herzegovina, Federation of", 
    "capital": "minor", 
    "population": "6902", 
    "population_proper": "6902"
  }, 
  {
    "city": "Višegrad", 
    "lat": "43.7833", 
    "lng": "19.2833", 
    "country": "Bosnia And Herzegovina", 
    "iso2": "BA", 
    "admin_name": "Srpska, Republika", 
    "capital": "minor", 
    "population": "5869", 
    "population_proper": "5869"
  }, 
  {
    "city": "Tomislavgrad", 
    "lat": "43.7135", 
    "lng": "17.2266", 
    "country": "Bosnia And Herzegovina", 
    "iso2": "BA", 
    "admin_name": "Bosnia and Herzegovina, Federation of", 
    "capital": "minor", 
    "population": "5760", 
    "population_proper": "5760"
  }, 
  {
    "city": "Grude", 
    "lat": "43.3776", 
    "lng": "17.3953", 
    "country": "Bosnia And Herzegovina", 
    "iso2": "BA", 
    "admin_name": "Bosnia and Herzegovina, Federation of", 
    "capital": "minor", 
    "population": "4404", 
    "population_proper": "4404"
  }, 
  {
    "city": "Neum", 
    "lat": "42.9261", 
    "lng": "17.6167", 
    "country": "Bosnia And Herzegovina", 
    "iso2": "BA", 
    "admin_name": "Bosnia and Herzegovina, Federation of", 
    "capital": "minor", 
    "population": "3236", 
    "population_proper": "3236"
  }, 
  {
    "city": "Teočak", 
    "lat": "44.6083", 
    "lng": "19.0167", 
    "country": "Bosnia And Herzegovina", 
    "iso2": "BA", 
    "admin_name": "Bosnia and Herzegovina, Federation of", 
    "capital": "minor", 
    "population": "2817", 
    "population_proper": "2817"
  }, 
  {
    "city": "Petrovo", 
    "lat": "44.6333", 
    "lng": "18.3667", 
    "country": "Bosnia And Herzegovina", 
    "iso2": "BA", 
    "admin_name": "Srpska, Republika", 
    "capital": "minor", 
    "population": "2322", 
    "population_proper": "2322"
  }, 
  {
    "city": "Brčko", 
    "lat": "44.8783", 
    "lng": "18.8092", 
    "country": "Bosnia And Herzegovina", 
    "iso2": "BA", 
    "admin_name": "Brcko District", 
    "capital": "admin", 
    "population": "", 
    "population_proper": ""
  }, 
  {
    "city": "Ilidža", 
    "lat": "43.8331", 
    "lng": "18.3039", 
    "country": "Bosnia And Herzegovina", 
    "iso2": "BA", 
    "admin_name": "Bosnia and Herzegovina, Federation of", 
    "capital": "minor", 
    "population": "", 
    "population_proper": ""
  }, 
  {
    "city": "Vogošća", 
    "lat": "43.9000", 
    "lng": "18.3500", 
    "country": "Bosnia And Herzegovina", 
    "iso2": "BA", 
    "admin_name": "Bosnia and Herzegovina, Federation of", 
    "capital": "minor", 
    "population": "", 
    "population_proper": ""
  }, 
  {
    "city": "Lukavica", 
    "lat": "43.8208", 
    "lng": "18.3803", 
    "country": "Bosnia And Herzegovina", 
    "iso2": "BA", 
    "admin_name": "Srpska, Republika", 
    "capital": "minor", 
    "population": "", 
    "population_proper": ""
  }, 
  {
    "city": "Tešanj", 
    "lat": "44.6119", 
    "lng": "17.9855", 
    "country": "Bosnia And Herzegovina", 
    "iso2": "BA", 
    "admin_name": "Bosnia and Herzegovina, Federation of", 
    "capital": "minor", 
    "population": "", 
    "population_proper": ""
  }, 
  {
    "city": "Omanjska", 
    "lat": "44.6983", 
    "lng": "17.9576", 
    "country": "Bosnia And Herzegovina", 
    "iso2": "BA", 
    "admin_name": "Bosnia and Herzegovina, Federation of", 
    "capital": "minor", 
    "population": "", 
    "population_proper": ""
  }, 
  {
    "city": "Matuzići", 
    "lat": "44.6878", 
    "lng": "18.0489", 
    "country": "Bosnia And Herzegovina", 
    "iso2": "BA", 
    "admin_name": "Bosnia and Herzegovina, Federation of", 
    "capital": "minor", 
    "population": "", 
    "population_proper": ""
  }, 
  {
    "city": "Klokotnica", 
    "lat": "44.7329", 
    "lng": "18.1888", 
    "country": "Bosnia And Herzegovina", 
    "iso2": "BA", 
    "admin_name": "Bosnia and Herzegovina, Federation of", 
    "capital": "minor", 
    "population": "", 
    "population_proper": ""
  }, 
  {
    "city": "Gračanica", 
    "lat": "44.7031", 
    "lng": "18.3101", 
    "country": "Bosnia And Herzegovina", 
    "iso2": "BA", 
    "admin_name": "Bosnia and Herzegovina, Federation of", 
    "capital": "minor", 
    "population": "", 
    "population_proper": ""
  }, 
  {
    "city": "Živinice", 
    "lat": "44.4493", 
    "lng": "18.6498", 
    "country": "Bosnia And Herzegovina", 
    "iso2": "BA", 
    "admin_name": "Bosnia and Herzegovina, Federation of", 
    "capital": "minor", 
    "population": "", 
    "population_proper": ""
  }, 
  {
    "city": "Bužim", 
    "lat": "45.0606", 
    "lng": "16.0167", 
    "country": "Bosnia And Herzegovina", 
    "iso2": "BA", 
    "admin_name": "Bosnia and Herzegovina, Federation of", 
    "capital": "minor", 
    "population": "", 
    "population_proper": ""
  }, 
  {
    "city": "Kalesija", 
    "lat": "44.4417", 
    "lng": "18.8750", 
    "country": "Bosnia And Herzegovina", 
    "iso2": "BA", 
    "admin_name": "Bosnia and Herzegovina, Federation of", 
    "capital": "minor", 
    "population": "", 
    "population_proper": ""
  }, 
  {
    "city": "Gradačac", 
    "lat": "44.8785", 
    "lng": "18.4276", 
    "country": "Bosnia And Herzegovina", 
    "iso2": "BA", 
    "admin_name": "Bosnia and Herzegovina, Federation of", 
    "capital": "minor", 
    "population": "", 
    "population_proper": ""
  }, 
  {
    "city": "Vitez", 
    "lat": "44.1585", 
    "lng": "17.7885", 
    "country": "Bosnia And Herzegovina", 
    "iso2": "BA", 
    "admin_name": "Bosnia and Herzegovina, Federation of", 
    "capital": "minor", 
    "population": "", 
    "population_proper": ""
  }, 
  {
    "city": "Srebrenik", 
    "lat": "44.7082", 
    "lng": "18.4883", 
    "country": "Bosnia And Herzegovina", 
    "iso2": "BA", 
    "admin_name": "Bosnia and Herzegovina, Federation of", 
    "capital": "minor", 
    "population": "", 
    "population_proper": ""
  }, 
  {
    "city": "Orašje", 
    "lat": "45.0347", 
    "lng": "18.6931", 
    "country": "Bosnia And Herzegovina", 
    "iso2": "BA", 
    "admin_name": "Bosnia and Herzegovina, Federation of", 
    "capital": "minor", 
    "population": "", 
    "population_proper": ""
  }, 
  {
    "city": "Cazin", 
    "lat": "44.9667", 
    "lng": "15.9333", 
    "country": "Bosnia And Herzegovina", 
    "iso2": "BA", 
    "admin_name": "Bosnia and Herzegovina, Federation of", 
    "capital": "minor", 
    "population": "", 
    "population_proper": ""
  }, 
  {
    "city": "Visoko", 
    "lat": "43.9894", 
    "lng": "18.1806", 
    "country": "Bosnia And Herzegovina", 
    "iso2": "BA", 
    "admin_name": "Bosnia and Herzegovina, Federation of", 
    "capital": "minor", 
    "population": "", 
    "population_proper": ""
  }, 
  {
    "city": "Kiseljak", 
    "lat": "43.9429", 
    "lng": "18.0813", 
    "country": "Bosnia And Herzegovina", 
    "iso2": "BA", 
    "admin_name": "Bosnia and Herzegovina, Federation of", 
    "capital": "minor", 
    "population": "", 
    "population_proper": ""
  }, 
  {
    "city": "Banovići", 
    "lat": "44.4060", 
    "lng": "18.5265", 
    "country": "Bosnia And Herzegovina", 
    "iso2": "BA", 
    "admin_name": "", 
    "capital": "minor", 
    "population": "", 
    "population_proper": ""
  }, 
  {
    "city": "Domaljevac", 
    "lat": "45.0611", 
    "lng": "18.5861", 
    "country": "Bosnia And Herzegovina", 
    "iso2": "BA", 
    "admin_name": "Bosnia and Herzegovina, Federation of", 
    "capital": "minor", 
    "population": "", 
    "population_proper": ""
  }, 
  {
    "city": "Busovača", 
    "lat": "44.0978", 
    "lng": "17.8783", 
    "country": "Bosnia And Herzegovina", 
    "iso2": "BA", 
    "admin_name": "Bosnia and Herzegovina, Federation of", 
    "capital": "minor", 
    "population": "", 
    "population_proper": ""
  }, 
  {
    "city": "Ljubuški", 
    "lat": "43.1981", 
    "lng": "17.5467", 
    "country": "Bosnia And Herzegovina", 
    "iso2": "BA", 
    "admin_name": "Bosnia and Herzegovina, Federation of", 
    "capital": "minor", 
    "population": "", 
    "population_proper": ""
  }, 
  {
    "city": "Stanari", 
    "lat": "44.7448", 
    "lng": "17.8271", 
    "country": "Bosnia And Herzegovina", 
    "iso2": "BA", 
    "admin_name": "Srpska, Republika", 
    "capital": "minor", 
    "population": "", 
    "population_proper": ""
  }, 
  {
    "city": "Šamac", 
    "lat": "45.0667", 
    "lng": "18.4667", 
    "country": "Bosnia And Herzegovina", 
    "iso2": "BA", 
    "admin_name": "Srpska, Republika", 
    "capital": "minor", 
    "population": "", 
    "population_proper": ""
  }, 
  {
    "city": "Čitluk", 
    "lat": "43.2286", 
    "lng": "17.7008", 
    "country": "Bosnia And Herzegovina", 
    "iso2": "BA", 
    "admin_name": "Bosnia and Herzegovina, Federation of", 
    "capital": "minor", 
    "population": "", 
    "population_proper": ""
  }, 
  {
    "city": "Kakanj", 
    "lat": "44.1331", 
    "lng": "18.1229", 
    "country": "Bosnia And Herzegovina", 
    "iso2": "BA", 
    "admin_name": "Bosnia and Herzegovina, Federation of", 
    "capital": "minor", 
    "population": "", 
    "population_proper": ""
  }, 
  {
    "city": "Novi Travnik", 
    "lat": "44.1714", 
    "lng": "17.6581", 
    "country": "Bosnia And Herzegovina", 
    "iso2": "BA", 
    "admin_name": "Bosnia and Herzegovina, Federation of", 
    "capital": "minor", 
    "population": "", 
    "population_proper": ""
  }, 
  {
    "city": "Travnik", 
    "lat": "44.2333", 
    "lng": "17.6667", 
    "country": "Bosnia And Herzegovina", 
    "iso2": "BA", 
    "admin_name": "Bosnia and Herzegovina, Federation of", 
    "capital": "minor", 
    "population": "", 
    "population_proper": ""
  }, 
  {
    "city": "Odžak", 
    "lat": "45.0246", 
    "lng": "18.3211", 
    "country": "Bosnia And Herzegovina", 
    "iso2": "BA", 
    "admin_name": "Bosnia and Herzegovina, Federation of", 
    "capital": "minor", 
    "population": "", 
    "population_proper": ""
  }, 
  {
    "city": "Vukosavlje", 
    "lat": "45.0172", 
    "lng": "18.3234", 
    "country": "Bosnia And Herzegovina", 
    "iso2": "BA", 
    "admin_name": "Srpska, Republika", 
    "capital": "minor", 
    "population": "", 
    "population_proper": ""
  }, 
  {
    "city": "Ugljevik", 
    "lat": "44.6642", 
    "lng": "19.0206", 
    "country": "Bosnia And Herzegovina", 
    "iso2": "BA", 
    "admin_name": "Srpska, Republika", 
    "capital": "minor", 
    "population": "", 
    "population_proper": ""
  }, 
  {
    "city": "Laktaši", 
    "lat": "44.9086", 
    "lng": "17.3014", 
    "country": "Bosnia And Herzegovina", 
    "iso2": "BA", 
    "admin_name": "Srpska, Republika", 
    "capital": "minor", 
    "population": "", 
    "population_proper": ""
  }, 
  {
    "city": "Modriča", 
    "lat": "44.9561", 
    "lng": "18.3020", 
    "country": "Bosnia And Herzegovina", 
    "iso2": "BA", 
    "admin_name": "Srpska, Republika", 
    "capital": "minor", 
    "population": "", 
    "population_proper": ""
  }, 
  {
    "city": "Hadžići", 
    "lat": "43.8236", 
    "lng": "18.2211", 
    "country": "Bosnia And Herzegovina", 
    "iso2": "BA", 
    "admin_name": "Bosnia and Herzegovina, Federation of", 
    "capital": "minor", 
    "population": "", 
    "population_proper": ""
  }, 
  {
    "city": "Čelić", 
    "lat": "44.7211", 
    "lng": "18.8203", 
    "country": "Bosnia And Herzegovina", 
    "iso2": "BA", 
    "admin_name": "Bosnia and Herzegovina, Federation of", 
    "capital": "minor", 
    "population": "", 
    "population_proper": ""
  }, 
  {
    "city": "Maglaj", 
    "lat": "44.5478", 
    "lng": "18.1000", 
    "country": "Bosnia And Herzegovina", 
    "iso2": "BA", 
    "admin_name": "Bosnia and Herzegovina, Federation of", 
    "capital": "minor", 
    "population": "", 
    "population_proper": ""
  }, 
  {
    "city": "Donji Žabar", 
    "lat": "44.9432", 
    "lng": "18.6467", 
    "country": "Bosnia And Herzegovina", 
    "iso2": "BA", 
    "admin_name": "Srpska, Republika", 
    "capital": "minor", 
    "population": "", 
    "population_proper": ""
  }, 
  {
    "city": "Novi Grad", 
    "lat": "45.0464", 
    "lng": "16.3778", 
    "country": "Bosnia And Herzegovina", 
    "iso2": "BA", 
    "admin_name": "Srpska, Republika", 
    "capital": "minor", 
    "population": "", 
    "population_proper": ""
  }, 
  {
    "city": "Jajce", 
    "lat": "44.3403", 
    "lng": "17.2572", 
    "country": "Bosnia And Herzegovina", 
    "iso2": "BA", 
    "admin_name": "Bosnia and Herzegovina, Federation of", 
    "capital": "minor", 
    "population": "", 
    "population_proper": ""
  }, 
  {
    "city": "Bratunac", 
    "lat": "44.1839", 
    "lng": "19.3308", 
    "country": "Bosnia And Herzegovina", 
    "iso2": "BA", 
    "admin_name": "Srpska, Republika", 
    "capital": "minor", 
    "population": "", 
    "population_proper": ""
  }, 
  {
    "city": "Široki Brijeg", 
    "lat": "43.3667", 
    "lng": "17.5833", 
    "country": "Bosnia And Herzegovina", 
    "iso2": "BA", 
    "admin_name": "Bosnia and Herzegovina, Federation of", 
    "capital": "minor", 
    "population": "", 
    "population_proper": ""
  }, 
  {
    "city": "Osmaci", 
    "lat": "44.4016", 
    "lng": "18.9164", 
    "country": "Bosnia And Herzegovina", 
    "iso2": "BA", 
    "admin_name": "Srpska, Republika", 
    "capital": "minor", 
    "population": "", 
    "population_proper": ""
  }, 
  {
    "city": "Gradiška", 
    "lat": "45.1333", 
    "lng": "17.2500", 
    "country": "Bosnia And Herzegovina", 
    "iso2": "BA", 
    "admin_name": "Srpska, Republika", 
    "capital": "minor", 
    "population": "", 
    "population_proper": ""
  }, 
  {
    "city": "Brod", 
    "lat": "45.1333", 
    "lng": "17.9833", 
    "country": "Bosnia And Herzegovina", 
    "iso2": "BA", 
    "admin_name": "Srpska, Republika", 
    "capital": "minor", 
    "population": "", 
    "population_proper": ""
  }, 
  {
    "city": "Ilijaš", 
    "lat": "43.9583", 
    "lng": "18.2667", 
    "country": "Bosnia And Herzegovina", 
    "iso2": "BA", 
    "admin_name": "Bosnia and Herzegovina, Federation of", 
    "capital": "minor", 
    "population": "", 
    "population_proper": ""
  }, 
  {
    "city": "Zavidovići", 
    "lat": "44.4458", 
    "lng": "18.1497", 
    "country": "Bosnia And Herzegovina", 
    "iso2": "BA", 
    "admin_name": "Bosnia and Herzegovina, Federation of", 
    "capital": "minor", 
    "population": "", 
    "population_proper": ""
  }, 
  {
    "city": "Prnjavor", 
    "lat": "44.8702", 
    "lng": "17.6626", 
    "country": "Bosnia And Herzegovina", 
    "iso2": "BA", 
    "admin_name": "Srpska, Republika", 
    "capital": "minor", 
    "population": "", 
    "population_proper": ""
  }, 
  {
    "city": "Gornji Vakuf", 
    "lat": "43.9333", 
    "lng": "17.5833", 
    "country": "Bosnia And Herzegovina", 
    "iso2": "BA", 
    "admin_name": "Bosnia and Herzegovina, Federation of", 
    "capital": "minor", 
    "population": "", 
    "population_proper": ""
  }, 
  {
    "city": "Lopare", 
    "lat": "44.6350", 
    "lng": "18.8434", 
    "country": "Bosnia And Herzegovina", 
    "iso2": "BA", 
    "admin_name": "Srpska, Republika", 
    "capital": "minor", 
    "population": "", 
    "population_proper": ""
  }, 
  {
    "city": "Ključ", 
    "lat": "44.5325", 
    "lng": "16.7768", 
    "country": "Bosnia And Herzegovina", 
    "iso2": "BA", 
    "admin_name": "Bosnia and Herzegovina, Federation of", 
    "capital": "minor", 
    "population": "", 
    "population_proper": ""
  }, 
  {
    "city": "Stolac", 
    "lat": "43.0839", 
    "lng": "17.9592", 
    "country": "Bosnia And Herzegovina", 
    "iso2": "BA", 
    "admin_name": "Bosnia and Herzegovina, Federation of", 
    "capital": "minor", 
    "population": "", 
    "population_proper": ""
  }, 
  {
    "city": "Posušje", 
    "lat": "43.4722", 
    "lng": "17.3267", 
    "country": "Bosnia And Herzegovina", 
    "iso2": "BA", 
    "admin_name": "Bosnia and Herzegovina, Federation of", 
    "capital": "minor", 
    "population": "", 
    "population_proper": ""
  }, 
  {
    "city": "Teslić", 
    "lat": "44.6064", 
    "lng": "17.8597", 
    "country": "Bosnia And Herzegovina", 
    "iso2": "BA", 
    "admin_name": "Srpska, Republika", 
    "capital": "minor", 
    "population": "", 
    "population_proper": ""
  }, 
  {
    "city": "Vlasenica", 
    "lat": "44.1833", 
    "lng": "18.9333", 
    "country": "Bosnia And Herzegovina", 
    "iso2": "BA", 
    "admin_name": "Srpska, Republika", 
    "capital": "minor", 
    "population": "", 
    "population_proper": ""
  }, 
  {
    "city": "Milići", 
    "lat": "44.1500", 
    "lng": "19.0833", 
    "country": "Bosnia And Herzegovina", 
    "iso2": "BA", 
    "admin_name": "Srpska, Republika", 
    "capital": "minor", 
    "population": "", 
    "population_proper": ""
  }, 
  {
    "city": "Čelinac", 
    "lat": "44.7400", 
    "lng": "17.3188", 
    "country": "Bosnia And Herzegovina", 
    "iso2": "BA", 
    "admin_name": "Srpska, Republika", 
    "capital": "minor", 
    "population": "", 
    "population_proper": ""
  }, 
  {
    "city": "Donji Vakuf", 
    "lat": "44.1436", 
    "lng": "17.4000", 
    "country": "Bosnia And Herzegovina", 
    "iso2": "BA", 
    "admin_name": "Bosnia and Herzegovina, Federation of", 
    "capital": "minor", 
    "population": "", 
    "population_proper": ""
  }, 
  {
    "city": "Kozarska Dubica", 
    "lat": "45.1767", 
    "lng": "16.8094", 
    "country": "Bosnia And Herzegovina", 
    "iso2": "BA", 
    "admin_name": "Srpska, Republika", 
    "capital": "minor", 
    "population": "", 
    "population_proper": ""
  }, 
  {
    "city": "Fojnica", 
    "lat": "43.9595", 
    "lng": "17.9029", 
    "country": "Bosnia And Herzegovina", 
    "iso2": "BA", 
    "admin_name": "Bosnia and Herzegovina, Federation of", 
    "capital": "minor", 
    "population": "", 
    "population_proper": ""
  }, 
  {
    "city": "Kreševo", 
    "lat": "43.8667", 
    "lng": "18.0500", 
    "country": "Bosnia And Herzegovina", 
    "iso2": "BA", 
    "admin_name": "Bosnia and Herzegovina, Federation of", 
    "capital": "minor", 
    "population": "", 
    "population_proper": ""
  }, 
  {
    "city": "Jezero", 
    "lat": "44.3495", 
    "lng": "17.1688", 
    "country": "Bosnia And Herzegovina", 
    "iso2": "BA", 
    "admin_name": "Srpska, Republika", 
    "capital": "minor", 
    "population": "", 
    "population_proper": ""
  }, 
  {
    "city": "Pale", 
    "lat": "43.8167", 
    "lng": "18.5667", 
    "country": "Bosnia And Herzegovina", 
    "iso2": "BA", 
    "admin_name": "Srpska, Republika", 
    "capital": "minor", 
    "population": "", 
    "population_proper": ""
  }, 
  {
    "city": "Srbac", 
    "lat": "45.1000", 
    "lng": "17.5167", 
    "country": "Bosnia And Herzegovina", 
    "iso2": "BA", 
    "admin_name": "Srpska, Republika", 
    "capital": "minor", 
    "population": "", 
    "population_proper": ""
  }, 
  {
    "city": "Kladanj", 
    "lat": "44.2267", 
    "lng": "18.6927", 
    "country": "Bosnia And Herzegovina", 
    "iso2": "BA", 
    "admin_name": "Bosnia and Herzegovina, Federation of", 
    "capital": "minor", 
    "population": "", 
    "population_proper": ""
  }, 
  {
    "city": "Kotor Varoš", 
    "lat": "44.6183", 
    "lng": "17.3720", 
    "country": "Bosnia And Herzegovina", 
    "iso2": "BA", 
    "admin_name": "Srpska, Republika", 
    "capital": "minor", 
    "population": "", 
    "population_proper": ""
  }, 
  {
    "city": "Pelagićevo", 
    "lat": "44.9011", 
    "lng": "18.5919", 
    "country": "Bosnia And Herzegovina", 
    "iso2": "BA", 
    "admin_name": "Srpska, Republika", 
    "capital": "minor", 
    "population": "", 
    "population_proper": ""
  }, 
  {
    "city": "Prozor", 
    "lat": "43.8222", 
    "lng": "17.6092", 
    "country": "Bosnia And Herzegovina", 
    "iso2": "BA", 
    "admin_name": "Bosnia and Herzegovina, Federation of", 
    "capital": "minor", 
    "population": "", 
    "population_proper": ""
  }, 
  {
    "city": "Kneževo", 
    "lat": "44.4907", 
    "lng": "17.3816", 
    "country": "Bosnia And Herzegovina", 
    "iso2": "BA", 
    "admin_name": "Srpska, Republika", 
    "capital": "minor", 
    "population": "", 
    "population_proper": ""
  }, 
  {
    "city": "Šekovići", 
    "lat": "44.2990", 
    "lng": "18.8553", 
    "country": "Bosnia And Herzegovina", 
    "iso2": "BA", 
    "admin_name": "Srpska, Republika", 
    "capital": "minor", 
    "population": "", 
    "population_proper": ""
  }, 
  {
    "city": "Dobratići", 
    "lat": "44.3753", 
    "lng": "17.4167", 
    "country": "Bosnia And Herzegovina", 
    "iso2": "BA", 
    "admin_name": "Bosnia and Herzegovina, Federation of", 
    "capital": "minor", 
    "population": "", 
    "population_proper": ""
  }, 
  {
    "city": "Olovo", 
    "lat": "44.1277", 
    "lng": "18.5807", 
    "country": "Bosnia And Herzegovina", 
    "iso2": "BA", 
    "admin_name": "Bosnia and Herzegovina, Federation of", 
    "capital": "minor", 
    "population": "", 
    "population_proper": ""
  }, 
  {
    "city": "Srebrenica", 
    "lat": "44.1000", 
    "lng": "19.3000", 
    "country": "Bosnia And Herzegovina", 
    "iso2": "BA", 
    "admin_name": "Srpska, Republika", 
    "capital": "minor", 
    "population": "", 
    "population_proper": ""
  }, 
  {
    "city": "Kostajnica", 
    "lat": "45.2167", 
    "lng": "16.5333", 
    "country": "Bosnia And Herzegovina", 
    "iso2": "BA", 
    "admin_name": "Srpska, Republika", 
    "capital": "minor", 
    "population": "", 
    "population_proper": ""
  }, 
  {
    "city": "Konjic", 
    "lat": "43.6513", 
    "lng": "17.9608", 
    "country": "Bosnia And Herzegovina", 
    "iso2": "BA", 
    "admin_name": "Bosnia and Herzegovina, Federation of", 
    "capital": "minor", 
    "population": "", 
    "population_proper": ""
  }, 
  {
    "city": "Rudo", 
    "lat": "43.6167", 
    "lng": "19.3667", 
    "country": "Bosnia And Herzegovina", 
    "iso2": "BA", 
    "admin_name": "Srpska, Republika", 
    "capital": "minor", 
    "population": "", 
    "population_proper": ""
  }, 
  {
    "city": "Kopači", 
    "lat": "43.6783", 
    "lng": "19.0284", 
    "country": "Bosnia And Herzegovina", 
    "iso2": "BA", 
    "admin_name": "Srpska, Republika", 
    "capital": "minor", 
    "population": "", 
    "population_proper": ""
  }, 
  {
    "city": "Šipovo", 
    "lat": "44.2824", 
    "lng": "17.0860", 
    "country": "Bosnia And Herzegovina", 
    "iso2": "BA", 
    "admin_name": "Srpska, Republika", 
    "capital": "minor", 
    "population": "", 
    "population_proper": ""
  }, 
  {
    "city": "Čajniče", 
    "lat": "43.5500", 
    "lng": "19.1667", 
    "country": "Bosnia And Herzegovina", 
    "iso2": "BA", 
    "admin_name": "Srpska, Republika", 
    "capital": "minor", 
    "population": "", 
    "population_proper": ""
  }, 
  {
    "city": "Donji Dubovik", 
    "lat": "44.8902", 
    "lng": "16.3251", 
    "country": "Bosnia And Herzegovina", 
    "iso2": "BA", 
    "admin_name": "Srpska, Republika", 
    "capital": "minor", 
    "population": "", 
    "population_proper": ""
  }, 
  {
    "city": "Sokolac", 
    "lat": "43.9382", 
    "lng": "18.8008", 
    "country": "Bosnia And Herzegovina", 
    "iso2": "BA", 
    "admin_name": "Srpska, Republika", 
    "capital": "minor", 
    "population": "", 
    "population_proper": ""
  }, 
  {
    "city": "Trnovo", 
    "lat": "43.6658", 
    "lng": "18.4459", 
    "country": "Bosnia And Herzegovina", 
    "iso2": "BA", 
    "admin_name": "Srpska, Republika", 
    "capital": "minor", 
    "population": "", 
    "population_proper": ""
  }, 
  {
    "city": "Rogatica", 
    "lat": "43.7989", 
    "lng": "19.0036", 
    "country": "Bosnia And Herzegovina", 
    "iso2": "BA", 
    "admin_name": "Srpska, Republika", 
    "capital": "minor", 
    "population": "", 
    "population_proper": ""
  }, 
  {
    "city": "Bileća", 
    "lat": "42.8667", 
    "lng": "18.4333", 
    "country": "Bosnia And Herzegovina", 
    "iso2": "BA", 
    "admin_name": "Srpska, Republika", 
    "capital": "minor", 
    "population": "", 
    "population_proper": ""
  }, 
  {
    "city": "Oštra Luka", 
    "lat": "44.8603", 
    "lng": "16.6607", 
    "country": "Bosnia And Herzegovina", 
    "iso2": "BA", 
    "admin_name": "Srpska, Republika", 
    "capital": "minor", 
    "population": "", 
    "population_proper": ""
  }, 
  {
    "city": "Hreša", 
    "lat": "43.8780", 
    "lng": "18.4970", 
    "country": "Bosnia And Herzegovina", 
    "iso2": "BA", 
    "admin_name": "Srpska, Republika", 
    "capital": "minor", 
    "population": "", 
    "population_proper": ""
  }, 
  {
    "city": "Nevesinje", 
    "lat": "43.2586", 
    "lng": "18.1133", 
    "country": "Bosnia And Herzegovina", 
    "iso2": "BA", 
    "admin_name": "Srpska, Republika", 
    "capital": "minor", 
    "population": "", 
    "population_proper": ""
  }, 
  {
    "city": "Gacko", 
    "lat": "43.1667", 
    "lng": "18.5333", 
    "country": "Bosnia And Herzegovina", 
    "iso2": "BA", 
    "admin_name": "Srpska, Republika", 
    "capital": "minor", 
    "population": "", 
    "population_proper": ""
  }, 
  {
    "city": "Ravno", 
    "lat": "42.8874", 
    "lng": "17.9655", 
    "country": "Bosnia And Herzegovina", 
    "iso2": "BA", 
    "admin_name": "Bosnia and Herzegovina, Federation of", 
    "capital": "minor", 
    "population": "", 
    "population_proper": ""
  }, 
  {
    "city": "Gornji Ribnik", 
    "lat": "44.4175", 
    "lng": "16.8169", 
    "country": "Bosnia And Herzegovina", 
    "iso2": "BA", 
    "admin_name": "Srpska, Republika", 
    "capital": "minor", 
    "population": "", 
    "population_proper": ""
  }, 
  {
    "city": "Han Pijesak", 
    "lat": "44.0817", 
    "lng": "18.9525", 
    "country": "Bosnia And Herzegovina", 
    "iso2": "BA", 
    "admin_name": "Srpska, Republika", 
    "capital": "minor", 
    "population": "", 
    "population_proper": ""
  }, 
  {
    "city": "Ljubinje", 
    "lat": "42.9500", 
    "lng": "18.0833", 
    "country": "Bosnia And Herzegovina", 
    "iso2": "BA", 
    "admin_name": "Srpska, Republika", 
    "capital": "minor", 
    "population": "", 
    "population_proper": ""
  }, 
  {
    "city": "Kupres", 
    "lat": "43.9906", 
    "lng": "17.2794", 
    "country": "Bosnia And Herzegovina", 
    "iso2": "BA", 
    "admin_name": "Bosnia and Herzegovina, Federation of", 
    "capital": "minor", 
    "population": "", 
    "population_proper": ""
  }, 
  {
    "city": "Prača", 
    "lat": "43.7637", 
    "lng": "18.7651", 
    "country": "Bosnia And Herzegovina", 
    "iso2": "BA", 
    "admin_name": "Bosnia and Herzegovina, Federation of", 
    "capital": "minor", 
    "population": "", 
    "population_proper": ""
  }, 
  {
    "city": "Berkovići", 
    "lat": "43.1167", 
    "lng": "18.0667", 
    "country": "Bosnia And Herzegovina", 
    "iso2": "BA", 
    "admin_name": "Srpska, Republika", 
    "capital": "minor", 
    "population": "", 
    "population_proper": ""
  }, 
  {
    "city": "Novo Selo", 
    "lat": "44.0801", 
    "lng": "17.1556", 
    "country": "Bosnia And Herzegovina", 
    "iso2": "BA", 
    "admin_name": "Srpska, Republika", 
    "capital": "minor", 
    "population": "", 
    "population_proper": ""
  }, 
  {
    "city": "Bosansko Grahovo", 
    "lat": "44.1967", 
    "lng": "16.3767", 
    "country": "Bosnia And Herzegovina", 
    "iso2": "BA", 
    "admin_name": "Bosnia and Herzegovina, Federation of", 
    "capital": "minor", 
    "population": "", 
    "population_proper": ""
  }, 
  {
    "city": "Glamoč", 
    "lat": "44.0500", 
    "lng": "16.8500", 
    "country": "Bosnia And Herzegovina", 
    "iso2": "BA", 
    "admin_name": "Bosnia and Herzegovina, Federation of", 
    "capital": "minor", 
    "population": "", 
    "population_proper": ""
  }, 
  {
    "city": "Kalinovik", 
    "lat": "43.5000", 
    "lng": "18.4500", 
    "country": "Bosnia And Herzegovina", 
    "iso2": "BA", 
    "admin_name": "Srpska, Republika", 
    "capital": "minor", 
    "population": "", 
    "population_proper": ""
  }, 
  {
    "city": "Drinić", 
    "lat": "44.5067", 
    "lng": "16.4670", 
    "country": "Bosnia And Herzegovina", 
    "iso2": "BA", 
    "admin_name": "Srpska, Republika", 
    "capital": "minor", 
    "population": "", 
    "population_proper": ""
  }, 
  {
    "city": "Potoci", 
    "lat": "44.3926", 
    "lng": "16.6200", 
    "country": "Bosnia And Herzegovina", 
    "iso2": "BA", 
    "admin_name": "Srpska, Republika", 
    "capital": "minor", 
    "population": "", 
    "population_proper": ""
  }
]